{
  "type": "FeatureCollection",
  "features": [
    {
      "type": "Feature",
      "properties": {
        "location": "Казанская пл. 2",
        "discipline": "Cafedral",
        "title": "Казанский собор"
      },
      "geometry": {
        "type": "Point",
        "coordinates": [
        30.324495,
        59.934257
        ]
      }
    },
    {
      "type": "Feature",
      "properties": {
        "location": "Футбольная аллея 1",
        "discipline": "Sport",
        "title": "Зенит Арена"
      },
      "geometry": {
        "type": "Point",
        "coordinates": [
        30.220557,
        59.973017
        ]
      }
    },
    {
      "type": "Feature",
      "properties": {
        "location": "Приморский проспект 91",
        "discipline": "Temple",
        "title": "Дацан Гунзечойней"
      },
      "geometry": {
        "type": "Point",
        "coordinates": [
        30.256028,
        59.983568
        ]
      }
    },
    {
      "type": "Feature",
      "properties": {
        "location": "Исаакиевская площадь 4",
        "discipline": "Cafedral",
        "title": "Исакиевский собор"
      },
      "geometry": {
        "type": "Point",
        "coordinates": [
        30.306233,
        59.934137
        ]
      }
    },
    {
      "type": "Feature",
      "properties": {
        "location": "Петровский остров 2",
        "discipline": "Sports",
        "title": "Стадион Петровский"
      },
      "geometry": {
        "type": "Point",
        "coordinates": [
        30.285514,
        59.952281
        ]
      }
    },
    {
      "type": "Feature",
      "properties": {
        "location": "Приморский просп. 74Д",
        "discipline": "Park",
        "title": "Парк 300-летия"
      },
      "geometry": {
        "type": "Point",
        "coordinates": [
        30.201437,
        59.982882
        ]
      }
    }
    
  ]
}
